City_ID,City,Country,Max Temp,Current Description,Lat,Lng,Hotel Name
0,Busselton,AU,73.0,clear sky,-33.65,115.33,Observatory Guest House
1,Cape Town,ZA,62.01,overcast clouds,-33.93,18.42,Southern Sun Waterfront Cape Town
5,Saint George,US,66.2,clear sky,37.1,-113.58,Best Western Plus Abbey Inn
6,Grado,ES,59.0,few clouds,43.39,-6.07,El reguero de Villamarín
10,Fortuna,US,53.6,clear sky,40.6,-124.16,Super 8 by Wyndham Fortuna
12,Salalah,OM,69.8,clear sky,17.02,54.09,HAMDAN PLAZA HOTEL
13,Nizip,TR,55.4,clear sky,37.01,37.79,gümüş apart
14,San Quintin,MX,65.14,broken clouds,30.48,-115.95,Old Mill Hotel
17,Port Lincoln,AU,55.04,overcast clouds,-34.73,135.87,Port Lincoln Hotel
18,Jamestown,US,62.6,thunderstorm,42.1,-79.24,Hampton Inn & Suites Jamestown
19,Tezu,IN,69.94,overcast clouds,27.92,96.17,Circuit House
20,Bredasdorp,ZA,64.4,overcast clouds,-34.53,20.04,Bredasdorp Country Manor
22,Bluff,NZ,71.01,overcast clouds,-46.6,168.33,Bluff Homestead - Guesthouse & Campervan Park
23,Ribeira Grande,PT,66.72,scattered clouds,38.52,-28.7,Quinta da Meia Eira
24,Carnarvon,AU,77.0,clear sky,-24.87,113.63,Hospitality Carnarvon
27,Inirida,CO,74.86,overcast clouds,3.87,-67.92,Fuente del Guania Hotel de Lujo
29,Dingle,PH,78.6,light rain,11.0,122.67,Camp Pasica
31,Rosita,NI,74.32,overcast clouds,13.93,-84.4,Colonia Cristo Rey
33,Rikitea,PF,73.96,overcast clouds,-23.12,-134.97,Pension Maro'i
34,Mar Del Plata,AR,59.0,overcast clouds,-38.0,-57.56,Gran Hotel Mar del Plata habitaciones
36,Shajapur,IN,77.4,clear sky,23.43,76.27,Raliway station
38,Alta Floresta,BR,71.47,light rain,-9.88,-56.09,Floresta Amazonica Hotel
40,Lompoc,US,62.6,clear sky,34.64,-120.46,Holiday Inn Express Lompoc
42,Sambava,MG,71.89,clear sky,-14.27,50.17,Melrose
44,Papayal,PE,70.39,overcast clouds,-4.08,-80.74,
45,Cidreira,BR,67.95,overcast clouds,-30.18,-50.21,Hotel Castelo
46,Victoria,HK,75.99,overcast clouds,22.29,114.16,Mini Hotel Central
48,Puerto Ayora,EC,69.01,scattered clouds,-0.74,-90.35,Finch Bay Galapagos Hotel
49,Bonthe,SL,78.24,light rain,7.53,-12.51,Bonthe Holiday Village
52,San Francisco,US,61.0,few clouds,37.77,-122.42,The Clift Royal Sonesta Hotel
55,Souillac,MU,73.4,scattered clouds,-20.52,57.52,Bils' Villa
57,Hobart,AU,55.4,broken clouds,-42.88,147.33,St Ives Hobart Accommodation Tasmania
62,Alice Springs,AU,73.4,scattered clouds,-23.7,133.88,Desert Palms Alice Springs
63,Port Alfred,ZA,69.62,overcast clouds,-33.59,26.89,The Halyards Hotel
64,Castro,BR,60.93,light rain,-24.79,-50.01,CHACARA BAILLY
66,Namibe,AO,69.3,overcast clouds,-15.2,12.15,Hotel Chik Chik Namibe
67,Gallup,US,57.2,clear sky,35.53,-108.74,El Capitan Motel
69,Tuatapere,NZ,71.01,overcast clouds,-46.13,167.68,Ron and Tony's Bed & Breakfast
70,Albany,US,63.0,few clouds,42.6,-73.97,
72,Atuona,PF,78.69,clear sky,-9.8,-139.03,Villa Enata
74,Viedma,AR,60.01,overcast clouds,-40.81,-63.0,Hotel Cristal
75,Balkanabat,TM,50.65,clear sky,39.51,54.37,Nebitchi Hotel
76,San Cristobal,VE,66.51,light rain,7.77,-72.22,Pirineos
81,Santa Maria,BR,65.73,broken clouds,-29.68,-53.81,Hotel Morotin
82,Coquimbo,CL,53.6,scattered clouds,-29.95,-71.34,Hotel San Juan
83,Chuy,UY,61.38,scattered clouds,-33.7,-53.46,Nuevo Hotel Plaza
84,Skierniewice,PL,55.0,light rain,51.95,20.16,Maraton
85,Kindu,CD,67.19,overcast clouds,-2.95,25.95,Hotel Karibu
87,Calabozo,VE,75.97,broken clouds,8.92,-67.43,Hotel Giardini
89,Lebu,CL,50.09,overcast clouds,-37.62,-73.65,Hostal Las Lilas
93,Mataura,NZ,71.01,broken clouds,-46.19,168.86,Ellie's Villa
94,Yulara,AU,69.8,scattered clouds,-25.24,130.99,Desert Gardens Hotel - Ayers Rock Resort
97,Saint-Philippe,RE,75.2,scattered clouds,-21.36,55.77,"Chambres d'hôte ""La Trinité"""
98,Vao,NC,73.81,clear sky,-22.67,167.48,Hotel Kou-Bugny
100,Vaini,TO,77.0,broken clouds,-21.2,-175.2,Keleti Beach Resort
101,Mapiri,BO,69.04,broken clouds,-15.25,-68.17,
103,Esperance,AU,62.6,overcast clouds,-33.87,121.9,Hospitality Esperance
105,Cedartown,US,70.0,few clouds,34.05,-85.25,Quality Inn
106,Shenjiamen,CN,62.1,overcast clouds,29.96,122.3,Jinjiang Inn Zhoushan Putuo Shenjiamen
116,Salvador,SV,78.8,mist,13.83,-88.92,Chico's Ranch
119,Gat,IL,69.01,few clouds,31.61,34.76,OlusHome
120,Port Macquarie,AU,73.0,overcast clouds,-31.43,152.92,Rydges Port Macquarie
125,Frolovo,RU,55.99,light rain,49.77,43.66,Gostinitsa Frolovo
128,Hermanus,ZA,64.0,broken clouds,-34.42,19.23,Misty Waves Boutique Hotel
129,Luangwa,ZM,72.36,overcast clouds,-15.62,30.42,Gerasimos Safari Lodge
130,Gweta,BW,73.24,clear sky,-20.18,25.23,Gweta Lodge
131,Pacifica,US,59.0,mist,37.61,-122.49,"Pacifica Lighthouse, Trademark Collection by Wyndham"
132,Sena Madureira,BR,74.86,broken clouds,-9.07,-68.66,Hotel Suzani
138,Ponta Do Sol,PT,66.2,scattered clouds,32.67,-17.1,Hotel do Campo
140,Yining,CN,65.34,overcast clouds,29.04,114.56,Xiushui Hotel
141,Bhuj,IN,79.38,clear sky,23.27,69.67,Regenta Resort Bhuj
142,Vila Velha,BR,69.8,broken clouds,-20.33,-40.29,Hotel Vitória Palace
143,East London,ZA,68.5,scattered clouds,-33.02,27.91,Tu Casa
144,Yashan,CN,74.57,overcast clouds,22.2,109.94,
148,Plettenberg Bay,ZA,64.8,broken clouds,-34.05,23.37,Thanda Vista B&B
152,Pacific Grove,US,62.6,clear sky,36.62,-121.92,Lovers Point Inn
154,Kaeo,NZ,68.14,few clouds,-35.1,173.78,Bushido Lodge
155,Tuscaloosa,US,71.6,clear sky,33.21,-87.57,Hampton Inn Tuscaloosa-University
159,New Norfolk,AU,55.4,broken clouds,-42.78,147.06,The Shingles Riverside Cottages
161,Arraial Do Cabo,BR,73.4,scattered clouds,-22.97,-42.03,Pousada Porto Praia
164,Malkara,TR,59.43,clear sky,40.89,26.9,Ütğm Korel Lojmanı
166,Sabha,LY,60.26,clear sky,27.04,14.43,محطة ام الارانب -سبها مواصلات
168,Russell,US,73.4,mist,32.35,-85.2,Macs
169,Cap Malheureux,MU,72.0,broken clouds,-19.98,57.61,Pereybere Hotel & Spa
171,Kutum,SD,70.14,clear sky,14.2,24.67,Dibbo areaمنطقة دبو
173,Kruisfontein,ZA,66.99,scattered clouds,-34.0,24.73,Oyster Bay House Rental
175,Lagoa,PT,66.65,scattered clouds,39.05,-27.98,Casa Das Faias
177,Petatlan,MX,78.3,overcast clouds,17.52,-101.27,Hotel California Petatlán
178,Ozerne,UA,52.77,overcast clouds,50.18,28.73,Polit
179,Bambous Virieux,MU,73.4,scattered clouds,-20.34,57.76,Casa Tia Villa
183,Punta De Piedra,VE,74.59,overcast clouds,7.62,-71.49,Casa 7 Punta de Piedra
184,Khazar,RU,57.36,clear sky,42.0,48.33,Hotel Moryana
185,Aars,DK,51.01,clear sky,56.8,9.51,Aars Hotel
186,Nouadhibou,MR,75.15,overcast clouds,20.93,-17.03,El Medina
191,Kristianstad,SE,50.0,light intensity drizzle,56.03,14.15,First Hotel Christian IV
192,Faya,SA,55.4,clear sky,18.39,42.45,مقبرة ال مجمل
193,Garowe,SO,76.59,overcast clouds,8.41,48.48,Curubo Hotel
195,Avarua,CK,75.2,light rain,-21.21,-159.78,Paradise Inn
200,Qinhuangdao,CN,60.93,clear sky,39.93,119.59,Qinhuangdao Peninsula Seasons Hotel And Apartment
202,Hokitika,NZ,60.46,clear sky,-42.72,170.97,Beachfront Hotel Hokitika
203,Porto Walter,BR,73.0,light rain,-8.27,-72.74,Hotel Silva
204,San-Pedro,CI,75.49,light rain,4.75,-6.64,Hotel Maria
205,Imbituba,BR,71.6,few clouds,-28.24,-48.67,Praia Hotel Imbituba
206,Yinchuan,CN,57.33,broken clouds,38.47,106.27,JJ Inns - Yinchuan New Moon Square Branch
211,Northam,GB,53.01,overcast clouds,51.03,-4.22,Durrant House Hotel
213,Belmonte,BR,71.6,overcast clouds,-15.86,-38.88,Pousada Monte Carmelo O Pão
217,Abonnema,NG,77.0,scattered clouds,4.71,6.79,Corper's Lodge Obonoma
218,Ferme-Neuve,CA,62.28,light rain,46.7,-75.45,Pourvoirie Club Fontbrune Ltee
219,Mahebourg,MU,73.4,scattered clouds,-20.41,57.7,Shandrani Beachcomber Resort & Spa
221,Flagstaff,US,57.2,clear sky,35.2,-111.65,Drury Inn & Suites Flagstaff
222,Greymouth,NZ,62.22,clear sky,-42.47,171.2,Kingsgate Hotel Greymouth
226,Tiznit,MA,62.06,overcast clouds,29.58,-9.5,
227,Sur,OM,79.43,clear sky,22.57,59.53,Sur Plaza Hotel
231,Tocopilla,CL,61.74,few clouds,-22.09,-70.2,Hotel Galvarino
233,Udaipura,IN,77.49,clear sky,23.08,78.5,Hotel Kanha Palace
234,Waipawa,NZ,66.0,clear sky,-41.41,175.52,Tora Coastal Walk
236,Marau,BR,65.32,overcast clouds,-28.45,-52.2,Hotel Pousada Tordilho Negro
237,Dongli,CN,71.6,clear sky,23.57,116.82,Chenghai Shizhang Donghuaqiao Hostel
238,Beloha,MG,69.78,overcast clouds,-25.17,45.05,
239,Bethel,US,60.01,overcast clouds,41.37,-73.41,Courtyard by Marriott Danbury
241,Amberley,US,62.01,overcast clouds,39.2,-84.43,"Motel 6 Cincinnati, OH - Central - Norwood"
246,Saldanha,ZA,59.0,few clouds,-33.01,17.94,Blue Bay Lodge
250,Codrington,AU,53.6,broken clouds,-38.27,141.97,Codrington Gardens Bed And Breakfast
252,Ariquemes,BR,73.72,light rain,-9.91,-63.04,Hotel Sol Nascente - Ariquemes - RO
253,Port Elizabeth,ZA,68.0,mist,-33.92,25.57,39 On Nile Guest House
255,Naze,JP,73.4,broken clouds,28.37,129.48,奄美ポートタワーホテル
259,Jalu,LY,61.97,clear sky,29.03,21.55,Jalu Hotel
260,Taguatinga,BR,76.53,light rain,-12.39,-46.57,
261,Richards Bay,ZA,66.69,broken clouds,-28.78,32.04,BON Hotel Waterfront Richards Bay
262,Quatre Cocos,MU,73.4,scattered clouds,-20.21,57.76,Emeraude Beach Attitude Hotel
264,Zarcero,CR,69.8,moderate rain,10.19,-84.39,Rancho Amalia
265,Hasaki,JP,68.0,broken clouds,35.73,140.83,Inubosaki Kanko Hotel
267,Ancud,CL,51.01,overcast clouds,-41.87,-73.82,Hotel Arena Gruesa
268,Gabu,GW,74.28,scattered clouds,12.28,-14.22,Hotel karsa
270,Hualmay,PE,61.92,overcast clouds,-11.1,-77.61,Hotel Restaurant Turístico Casablanca
271,Nortelandia,BR,74.71,moderate rain,-14.45,-56.8,Hotel Karysmã
275,Mercedes,AR,66.0,broken clouds,-34.65,-59.43,Posada del Inti Centro
278,Wellington,NZ,66.0,scattered clouds,-41.29,174.78,CityLife Wellington
282,Liwale,TZ,68.94,few clouds,-9.77,37.93,Samoma Lodge
289,Cayenne,GF,77.0,clear sky,4.93,-52.33,Hôtel Le Dronmi
291,Kagoro,NG,67.14,overcast clouds,9.6,8.38,Palm Garden Hotel
293,Quthing,LS,64.29,overcast clouds,-30.4,27.7,Mountainside Hotel
296,Seoul,KR,51.8,clear sky,37.57,126.98,LOTTE HOTEL SEOUL
299,Te Anau,NZ,58.86,overcast clouds,-45.42,167.72,Kingsgate Hotel Te Anau
300,Misratah,LY,66.76,clear sky,32.38,15.09,فندق الماسة
301,Saint-Pierre,RE,73.4,scattered clouds,-21.34,55.48,Lindsey Hôtel
302,Praya,CV,78.8,scattered clouds,14.92,-23.51,LT Aparthotel
305,Biloela,AU,79.36,light rain,-24.42,150.5,Silo Motor Inn
306,Bandarbeyla,SO,76.8,overcast clouds,9.49,50.81,REER XOOSHLE GROUP
307,Vila Franca Do Campo,PT,66.2,scattered clouds,37.72,-25.43,Pestana Bahia Praia
312,Hongjiang,CN,70.61,broken clouds,27.11,110.0,洪江大酒店
313,Natchitoches,US,69.8,overcast clouds,31.77,-93.13,Super 8 by Wyndham Natchitoches
314,Knysna,ZA,64.4,broken clouds,-34.04,23.05,Protea Hotel by Marriott Knysna Quays
315,Constantine,DZ,57.2,scattered clouds,36.37,6.61,Grand Hotel Cirta
317,Iquique,CL,64.4,overcast clouds,-20.22,-70.14,Backpacker`s Hostel Iquique
319,Mayuge,UG,62.29,scattered clouds,0.46,33.48,Mayuge Guest House
321,Panzhihua,CN,63.57,overcast clouds,26.59,101.71,Electric Power Hotel
324,Letlhakane,BW,72.03,clear sky,-21.42,25.58,Motswedi Hotel P650
328,Azul,AR,56.59,few clouds,-36.78,-59.86,Cabañas Dulcinea
330,Abu Dhabi,AE,75.2,clear sky,24.47,54.37,Beach Rotana
331,Thanh Hoa,VN,76.3,overcast clouds,19.8,105.77,KHÁCH SẠN NGỌC LY 8
333,Bukama,CD,71.13,scattered clouds,-9.2,25.85,
334,Sao Joao Da Barra,BR,72.79,broken clouds,-21.64,-41.05,Pousada Porto De Canoas
335,Lisieux,FR,55.4,mist,49.17,0.17,La ville au calme
337,Kaitangata,NZ,68.0,clear sky,-46.28,169.85,Kaitangata Motor Camp
338,Reconquista,AR,68.31,overcast clouds,-29.15,-59.65,Grand Hotel
339,Antofagasta,CL,57.2,overcast clouds,-23.65,-70.4,Holiday Inn Express Antofagasta
341,Wageningen,NL,54.0,overcast clouds,51.97,5.67,Fletcher Hotel-Restaurant De Wageningsche Berg
344,Lata,PT,54.0,scattered clouds,40.16,-8.33,Casa Maquia
346,Sinnamary,GF,79.81,scattered clouds,5.38,-52.95,ALETHEIA Appartement Sinnamary
347,Pingliang,CN,53.67,few clouds,35.54,106.69,Xinxiang Hostel
348,Ponta Delgada,PT,66.2,scattered clouds,37.73,-25.67,Vila Nova Hotel
349,Broken Hill,AU,57.2,overcast clouds,-31.95,141.43,Daydream Motel & Cottages
350,San Patricio,US,78.8,scattered clouds,28.02,-97.52,"Motel 6 Sinton, TX"
353,Faanui,PF,79.39,overcast clouds,-16.48,-151.75,Bora-Bora Pearl Beach Resort & Spa
354,Port Augusta,AU,62.6,broken clouds,-32.5,137.77,Majestic Oasis Apartments
355,Kapit,MY,79.7,overcast clouds,2.02,112.93,Hotel Meligai Kapit
356,Marawi,PH,78.01,broken clouds,8.0,124.29,Derogongan Residence
358,Caravelas,BR,72.27,broken clouds,-17.71,-39.25,Pousada dos Navegantes
359,Loudeac,FR,52.0,overcast clouds,48.18,-2.75,Everhotel Loudeac
365,Sitio Novo Do Tocantins,BR,78.3,overcast clouds,-5.52,-47.46,Imperial Hotel
368,Kaele,CM,75.18,few clouds,10.11,14.45,Hotel Du Centre
369,Touros,BR,77.0,broken clouds,-5.2,-35.46,INN NEW HORIZON
372,Phirangipuram,IN,78.8,mist,16.3,80.27,Nirmal hrudai orphanage
373,Khash,IR,50.43,clear sky,28.22,61.22,دفتر پیشخوان دولت جمال زهی (خالد)
374,Taltal,CL,57.38,few clouds,-25.4,-70.48,Residencial Karime
377,Regente Feijo,BR,71.78,overcast clouds,-22.22,-51.3,Hotel Ramos
387,Williamsport,US,68.0,few clouds,41.24,-77.0,Hampton Inn Williamsport-Downtown
390,Le Port,RE,75.2,overcast clouds,-20.94,55.29,Villa Maido
391,Sungaipenuh,ID,77.56,heavy intensity rain,-2.08,101.38,Hotel Jaya Wisata 2
392,Hamilton,US,62.6,overcast clouds,39.18,-84.53,Six Acres Bed & Breakfast
393,Muriwai Beach,NZ,69.01,broken clouds,-36.82,174.45,Coast Retreat Muriwai - Golf and Surf Holiday
395,Meadow Lake,US,57.2,few clouds,34.8,-106.54,JKL Inc. R.V Park and Storage
396,Elliot,ZA,63.48,overcast clouds,-31.33,27.85,Rose Garden Dinner Bed and Breakfast
398,Mutsu,JP,55.99,scattered clouds,41.29,141.22,Mutsu Park Hotel
399,Portland,US,55.99,overcast clouds,45.52,-122.68,Portland Marriott City Center
400,Linxia,CN,56.68,broken clouds,35.6,103.21,GreenTree Inn Linxia Autonomous Prefecture Linxia Oxford River Avenue Express Hotel
402,Lahij,YE,73.56,clear sky,13.17,44.58,
405,Yadgir,IN,79.23,few clouds,16.77,77.13,Hotel SLV yadgir
406,Placer,US,55.0,clear sky,39.07,-120.77,Community of the Great Commission
409,Robertsport,LR,78.64,light rain,6.75,-11.37,Kwepunha Retreat
410,Flinders,AU,77.0,light rain,-34.58,150.86,Shellharbour Resort & Conference Centre
411,Guerrero Negro,MX,66.92,clear sky,27.98,-114.06,"Casa Laguna, Bed & Breakfast"
412,Siniscola,IT,66.2,light rain,40.57,9.69,Hotel Sa Tanca E Bore
413,Rio Grande,BR,64.0,overcast clouds,-32.03,-52.1,Hotel Atlântico Rio Grande
415,Mezcala,MX,63.79,few clouds,20.93,-102.75,HACIENDA LA CONCEPCIÓN
417,Almaznyy,RU,57.2,scattered clouds,48.04,40.05,
420,Kamaishi,JP,53.6,broken clouds,39.27,141.88,Hotel Route Inn Kamaishi
421,Marsh Harbour,BS,79.3,clear sky,26.54,-77.06,Abaco Beach Resort
422,Sarai Naurang,PK,75.97,clear sky,32.83,70.78,Zargar ice Factory
424,Otane,NZ,67.82,scattered clouds,-39.88,176.63,Ludlow Farmstay
425,Lasa,IT,52.0,mist,46.62,10.7,Pension Feldgärtenhof
427,Linhares,BR,70.47,light rain,-19.39,-40.07,Hotel Conceição
429,Santa Isabel Do Rio Negro,BR,74.12,light rain,-0.41,-65.02,Hotel GSA
430,Ankazoabo,MG,70.38,clear sky,-22.28,44.52,
431,Fukue,JP,60.8,broken clouds,32.69,128.84,Goto Guesthouse Utojuku & SA Car Rental
432,Loandjili,CG,76.24,light rain,-4.76,11.86,Résidence ARCHANGE
436,Ambilobe,MG,70.66,clear sky,-13.2,49.05,Hôtel & Restaurant DIANA Ambilobe
439,Esmeraldas,BR,66.2,broken clouds,-19.76,-44.31,Hotel Fazenda Lagoa Azul
441,Kasongo-Lunda,CD,69.89,light rain,-6.47,16.82,
442,Tucuman,AR,75.2,overcast clouds,-26.82,-65.22,Dallas Hotel Tucuman
443,Rosarito,MX,66.0,broken clouds,32.33,-117.03,Hotel Festival Plaza Rosarito
444,Murray Bridge,AU,55.0,broken clouds,-35.12,139.27,Balcony On Sixth Lodge
446,San Jose De Guanipa,VE,76.32,very heavy rain,8.89,-64.17,HOTEL 283 SUITES
450,Hami,CN,58.41,clear sky,42.8,93.45,Laoyutang Resort
452,Rio Hondo,GT,72.03,light rain,15.07,-89.58,Hotel Rio
453,Zhoucun,CN,66.0,clear sky,36.82,117.82,Zibo Changxin Hotel
456,Mao,ES,66.2,clear sky,39.89,4.27,ARTIEM Capri
460,Warwick,US,57.99,few clouds,41.7,-71.42,Hampton Inn & Suites Providence/Warwick-Airport
465,Takoradi,GH,76.64,broken clouds,4.88,-1.76,Raybow International Hotel
467,Porto Santo,PT,66.2,few clouds,33.07,-16.34,Hotel Porto Santo & Spa
468,Shingu,JP,66.2,broken clouds,33.73,135.98,Shingu UI Hotel
469,Lashio,MM,75.51,overcast clouds,22.93,97.75,Hotel CF Lashio - Burmese Only
470,Dimapur,IN,71.6,moderate rain,25.9,93.73,Jungjung Homestay
471,Skibbereen,IE,53.6,moderate rain,51.55,-9.27,The West Cork Hotel
472,Mayo,US,66.2,clear sky,38.89,-76.51,Resorts Resource Group International
474,Los Llanos De Aridane,ES,68.0,broken clouds,28.66,-17.92,Valle Aridane
475,Puerto Baquerizo Moreno,EC,69.28,clear sky,-0.9,-89.6,Hotel los Algarrobos
477,Ahipara,NZ,68.77,few clouds,-35.17,173.17,Ahipara Holiday Park
479,Tchibanga,GA,72.23,overcast clouds,-2.85,11.03,
480,Deniliquin,AU,59.02,overcast clouds,-35.53,144.97,Riviana Motel
481,Huarmey,PE,62.92,overcast clouds,-10.07,-78.15,Hotel Miramar
482,San Vicente,AR,65.98,clear sky,-26.62,-54.13,Complejo Turístico Farelluk
483,Haimen,CN,71.6,clear sky,23.19,116.61,Jinghao Business Hotel
485,Vila,PT,52.0,overcast clouds,42.03,-8.16,Hotel Castrum Villae
486,Kabinda,CD,68.47,overcast clouds,-6.13,24.48,Village Mianda Mutole
487,Olpad,IN,75.2,haze,21.33,72.75,IDTCATERING
488,Astoria,US,57.0,overcast clouds,46.19,-123.83,Best Western Astoria Bayfront Hotel
489,Nantucket,US,57.99,overcast clouds,41.28,-70.1,Jared Coffin House
491,Rocky Mount,US,62.6,clear sky,35.94,-77.79,Days Inn & Suites by Wyndham Rocky Mount Golden East
494,Xuzhou,CN,61.93,clear sky,34.18,117.16,Thank Inn Chain Hotel Jiangsu xuzhou tongshan district Beijing south road
498,Diebougou,BF,74.43,broken clouds,10.97,-3.25,Hotel Le Consulat
499,Comodoro Rivadavia,AR,57.2,clear sky,-45.87,-67.5,Austral Hotel
504,Coari,BR,74.53,moderate rain,-4.08,-63.14,HOTEL ALEX FLAT
507,Shache,CN,53.29,few clouds,38.42,77.24,Delong Hotel
508,Potiskum,NG,77.11,overcast clouds,11.71,11.07,Tamir Hotel Ltd
516,Umtata,ZA,71.6,overcast clouds,-31.59,28.78,LLZZ Boutique Lodge
518,Broome,US,64.0,few clouds,42.25,-75.83,Chenango Valley State Park
522,Zhuhai,CN,73.4,few clouds,22.28,113.57,珠海粤财假日酒店
523,Houma,US,72.0,clear sky,29.6,-90.72,Courtyard by Marriott Houma
524,Esna,EG,69.8,clear sky,25.29,32.55,Orient Star Dahabyia Isna 05 Nights Each Sunday
525,Sokolka,PL,54.0,light rain,53.41,23.5,Restauracja i Pokoje Gościnne Verde
529,Pascagoula,US,75.2,clear sky,30.37,-88.56,Regency Inn
534,Antalaha,MG,70.88,clear sky,-14.9,50.28,Hotel Vitasoa
535,Arlit,NE,78.22,clear sky,18.74,7.39,Hôtel Telwa Bungalow
536,Diffa,NE,79.74,few clouds,13.32,12.61,ProDAF/Diffa
537,Puerto Penasco,MX,75.0,overcast clouds,31.32,-113.53,Playa Bonita Resort
538,Nueva Loja,EC,73.11,overcast clouds,0.08,-76.88,Limoncocha Great Hotel
539,Front Royal,US,64.99,clear sky,38.92,-78.19,Hampton Inn Front Royal
540,Batemans Bay,AU,66.0,light rain,-35.72,150.18,Batemans Bay Marina Resort
541,Puerto Quijarro,BO,73.63,light rain,-17.78,-57.77,Hotel palance
544,Villa Carlos Paz,AR,69.01,light rain,-31.42,-64.5,Monte Carlo
546,Pahrump,US,64.99,broken clouds,36.21,-115.98,Best Western Pahrump Oasis
547,Novoanninskiy,RU,55.99,overcast clouds,50.53,42.67,Sotnik
548,Kiama,AU,77.0,moderate rain,-34.68,150.87,The Sebel Kiama Harbourside
549,Ibra,OM,72.99,clear sky,22.69,58.53,مزرعة راحة النفوس المنزفة
551,Itarema,BR,79.14,few clouds,-2.92,-39.92,Windvillage
553,Clarence Town,AU,73.99,light intensity shower rain,-32.58,151.78,River Downs Cottage
554,Dunedin,NZ,68.0,scattered clouds,-45.87,170.5,Scenic Hotel Southern Cross
555,Asyut,EG,69.8,clear sky,27.18,31.18,Florence Hotel Assiut
557,Bilma,NE,73.54,clear sky,18.69,12.92,Expeditions Ténére voyages
558,Kismayo,SO,79.77,scattered clouds,-0.36,42.55,Agan-Hotel
559,Grand-Santi,GF,72.81,scattered clouds,4.25,-54.38,Hotel La Villa Couacou
560,Guebwiller,FR,55.0,clear sky,47.92,7.2,Le Saint-Barnabé | Hôtel et Spa Haut-Rhin
562,Laguna,US,68.0,clear sky,38.42,-121.42,Holiday Inn Express & Suites Elk Grove Central - Hwy 99
563,Lipari,IT,64.99,broken clouds,38.47,14.95,Hotel Villa Augustus
564,Sangmelima,CM,66.78,light rain,2.93,11.98,gamestar hotel
567,Viani,CO,55.4,broken clouds,4.87,-74.56,Hotel el Cone
569,Datong,CN,50.02,clear sky,40.09,113.29,Holiday Inn Datong City Centre
570,Paita,PE,63.27,overcast clouds,-5.09,-81.11,Hotel Náutico de Paita
572,Thyboron,DK,50.0,broken clouds,56.7,8.21,Thyborøn Hotel
573,Ascope,PE,65.26,overcast clouds,-7.71,-79.11,agroindustrial casagrande
576,Varadero,CU,77.0,overcast clouds,23.15,-81.25,Hotel Tuxpan Varadero
579,Half Moon Bay,US,61.0,mist,37.46,-122.43,"The Ritz-Carlton, Half Moon Bay"
580,Kampene,CD,66.81,overcast clouds,-3.6,26.67,
583,Surt,LY,66.45,clear sky,31.21,16.59,City Hotel
588,Shimoda,JP,69.8,few clouds,34.67,138.95,Shimoda Tokyu Hotel
589,Novopokrovka,UA,53.6,light rain,49.84,36.55,Пудж дом
590,Yenagoa,NG,74.75,overcast clouds,4.92,6.26,Amba Hotels Limited
591,Owando,CG,70.72,light rain,-0.48,15.9,Exaunel Hotel Owando
592,Yancheng,CN,61.95,clear sky,33.39,120.13,Yancheng Lidu Boutique Hotel
594,Mata De Sao Joao,BR,78.8,few clouds,-12.53,-38.3,Sítio Sapiranga
596,Hun,LY,56.39,clear sky,29.13,15.95,Alrwasi Hotel
598,Pisco,PE,62.6,clear sky,-13.7,-76.22,Hostal San Isidro Oficial
599,Conceicao Da Barra,BR,72.36,light rain,-18.59,-39.73,Cricaré Praia Hotel
600,Iquitos,PE,71.6,light rain,-3.75,-73.25,Cortez Malaga Techy Caroly
603,Primorsk,UA,61.83,overcast clouds,46.73,36.34,Relax
604,Carroll,US,62.01,clear sky,39.55,-77.02,Best Western Westminster Hotel
607,Roma,US,66.2,clear sky,43.21,-75.46,Wingate By Wyndham Rome
608,Gopalur,IN,78.94,clear sky,16.62,77.8,Dhaba- Motel
613,Perpignan,FR,57.99,clear sky,42.75,2.75,Le moulin a huile de l'agly
615,Mwinilunga,ZM,62.96,broken clouds,-11.74,24.43,Kwakuwahi Lodge
618,Necochea,AR,52.0,clear sky,-38.55,-58.74,dyd -mar Hotel
620,Grand Gaube,MU,72.0,broken clouds,-20.01,57.66,Veranda Paul et Virginie Hotel & Spa
621,Ozinki,RU,51.31,light rain,51.18,49.68,at Rest
622,Kalabo,ZM,66.7,clear sky,-14.97,22.68,Sikakubete Guest House Kalabo Town Council
625,Murwara,IN,76.14,clear sky,23.85,80.4,HOTEL BRIJWASI ROYAL
626,Caninde,BR,76.53,broken clouds,-4.36,-39.31,Hotel Casa Grande II
627,Sao Felix Do Xingu,BR,73.54,heavy intensity rain,-6.64,-51.99,Apart Hotel Rio Xingu
628,Natal,BR,77.0,broken clouds,-5.79,-35.21,Villa Park Hotel | Natal
629,Kwakoa,TZ,66.06,scattered clouds,-3.77,37.72,MJI Mwema Lodge
631,Axim,GH,76.6,light rain,4.87,-2.24,AXIM BEACH RESORT AND SPA
632,Kondoa,TZ,58.75,scattered clouds,-4.9,35.78,Kinyuma Lodge
633,Borba,BR,75.87,broken clouds,-4.39,-59.59,Hotel da Amazônia
634,Leopoldov,SK,50.0,fog,48.45,17.76,Hotel Stofing
635,Unai,BR,69.62,moderate rain,-16.36,-46.91,Hotel Regente
637,Aguas Vermelhas,BR,63.52,broken clouds,-15.75,-41.46,
639,Abu Samrah,SY,64.4,clear sky,35.3,37.18,
641,Kalemie,CD,71.35,broken clouds,-5.95,29.19,Mahobilali
642,Saint-Joseph,RE,73.4,scattered clouds,-21.37,55.62,"""Plantation Bed and Breakfast"
649,Bukoba,TZ,64.04,scattered clouds,-1.33,31.81,Elct Bukoba Hotel and Tours
650,La Ceiba,HN,79.74,overcast clouds,15.76,-86.78,Hotel Art Deco Beach
651,Yumen,CN,51.08,clear sky,40.28,97.2,
653,Guane,CU,77.09,overcast clouds,22.2,-84.09,base de Campismo LosPortales de Guane
655,Jinchang,CN,52.9,clear sky,38.5,102.17,Mingshihui Jinchang International Hotel
658,Chulakivka,UA,57.2,fog,46.36,32.35,
659,Maryville,US,69.8,broken clouds,35.76,-83.97,Holiday Inn Express & Suites Alcoa (Knoxville Airport)
660,Katsuura,JP,68.0,scattered clouds,35.13,140.3,Katsuura Hotel Mikazuki
661,Quelimane,MZ,66.09,clear sky,-17.88,36.89,Hotel Flamingo
662,Kushima,JP,66.2,scattered clouds,31.46,131.23,Hanaoka
663,Civitavecchia,IT,59.0,light rain,42.09,11.8,Hotel Mediterraneo
664,Cessnock,AU,73.99,moderate rain,-32.83,151.35,The Mighty Hunter Valley (Formerly Potters & Foghorn Brewery)
666,Zvishavane,ZW,64.0,clear sky,-20.33,30.07,Hotel Boutique Runde
667,Salta,AR,73.4,scattered clouds,-24.79,-65.41,Hotel Alejandro I
670,Dunkirk,FR,53.01,broken clouds,51.05,2.37,All Suites Appart Hôtel Dunkerque
671,Panaba,MX,77.09,overcast clouds,21.28,-88.27,Hotel Amor
672,Morant Bay,JM,75.2,overcast clouds,17.88,-76.41,Whispering Bamboo Cove Resort
